[
  {
    "city": "Москва",
    "lat": "55.7558",
    "lng": "37.6178",
    "country": "Россия",
    "state": "Москва"
  },
  {
    "city": "Санкт-Петербург",
    "lat": "59.9500",
    "lng": "30.3167",
    "country": "Россия",
    "state": "Ленинградская обл."
  },
  {
    "city": "Новосибирск",
    "lat": "55.0333",
    "lng": "82.9167",
    "country": "Россия",
    "state": "Новосибирская обл."
  },
  {
    "city": "Екатеринбург",
    "lat": "56.8356",
    "lng": "60.6128",
    "country": "Россия",
    "state": "Свердловская обл."
  },
  {
    "city": "Нижний Новгород",
    "lat": "56.3269",
    "lng": "44.0075",
    "country": "Россия",
    "state": "Нижегородская обл."
  },
  {
    "city": "Казань",
    "lat": "55.7908",
    "lng": "49.1144",
    "country": "Россия",
    "state": "Татарстан"
  },
  {
    "city": "Челябинск",
    "lat": "55.1500",
    "lng": "61.4000",
    "country": "Россия",
    "state": "Челябинская обл."
  },
  {
    "city": "Омск",
    "lat": "54.9667",
    "lng": "73.3833",
    "country": "Россия",
    "state": "Омская обл."
  },
  {
    "city": "Самара",
    "lat": "53.1833",
    "lng": "50.1167",
    "country": "Россия",
    "state": "Самарская обл."
  },
  {
    "city": "Ростов",
    "lat": "47.2333",
    "lng": "39.7167",
    "country": "Россия",
    "state": "Ростовская обл."
  },
  {
    "city": "Уфа",
    "lat": "54.7333",
    "lng": "55.9667",
    "country": "Россия",
    "state": "Башкортостан"
  },
  {
    "city": "Красноярск",
    "lat": "56.0167",
    "lng": "92.8667",
    "country": "Россия",
    "state": "Красноярский край"
  },
  {
    "city": "Пермь",
    "lat": "58.0139",
    "lng": "56.2489",
    "country": "Россия",
    "state": "Пермский край"
  },
  {
    "city": "Воронеж",
    "lat": "51.6717",
    "lng": "39.2106",
    "country": "Россия",
    "state": "Воронежская обл."
  },
  {
    "city": "Волгоград",
    "lat": "48.7086",
    "lng": "44.5147",
    "country": "Россия",
    "state": "Волгоградская обл."
  },
  {
    "city": "Краснодар",
    "lat": "45.0333",
    "lng": "38.9833",
    "country": "Россия",
    "state": "Краснодарский край"
  },
  {
    "city": "Саратов",
    "lat": "51.5333",
    "lng": "46.0000",
    "country": "Россия",
    "state": "Саратовская обл."
  }
]